[{"code":"0101","name":"Chachapoyas","capital":"Chachapoyas","lat":-6.22944,"lng":-77.87278},{"code":"0102","name":"Bagua","capital":"Bagua","lat":-5.63889,"lng":-78.53111},{"code":"0103","name":"Bongara","capital":"Jumbilla","lat":-5.90444,"lng":-77.79778},{"code":"0104","name":"Condorcanqui","capital":"Santa María de Nieva","lat":-4.59222,"lng":-77.86444},{"code":"0105","name":"Luya","capital":"Lámud","lat":-6.13917,"lng":-77.95222},{"code":"0106","name":"Rodriguez de Mendoza","capital":"Mendoza","lat":-6.39528,"lng":-77.48222},{"code":"0107","name":"Utcubamba","capital":"Bagua Grande","lat":-5.75472,"lng":-78.44278},{"code":"0201","name":"Huaraz","capital":"Huaraz","lat":-9.52972,"lng":-77.52917},{"code":"0202","name":"Aija","capital":"Aija","lat":-9.78028,"lng":-77.61056},{"code":"0203","name":"Antonio Raymondi","capital":"Llamellín","lat":-9.10083,"lng":-77.01694},{"code":"0204","name":"Asuncion","capital":"Chacas","lat":-9.16222,"lng":-77.36583},{"code":"0205","name":"Bolognesi","capital":"Chiquián","lat":-10.15194,"lng":-77.15639},{"code":"0206","name":"Carhuaz","capital":"Carhuaz","lat":-9.28139,"lng":-77.64667},{"code":"0207","name":"Carlos Fermin Fitzcarrald","capital":"San Luis","lat":-9.09417,"lng":-77.32889},{"code":"0208","name":"Casma","capital":"Casma","lat":-9.47583,"lng":-78.30639},{"code":"0209","name":"Corongo","capital":"Corongo","lat":-8.57083,"lng":-77.89889},{"code":"0210","name":"Huari","capital":"Huari","lat":-9.34722,"lng":-77.17083},{"code":"0211","name":"Huarmey","capital":"Huarmey","lat":-10.06889,"lng":-78.15167},{"code":"0212","name":"Huaylas","capital":"Caraz","lat":-9.04861,"lng":-77.80472},{"code":"0213","name":"Mariscal Luzuriaga","capital":"Piscobamba","lat":-8.865,"lng":-77.35778},{"code":"0214","name":"Ocros","capital":"Ocros","lat":-10.40333,"lng":-77.39667},{"code":"0215","name":"Pallasca","capital":"Cabana","lat":-8.39306,"lng":-78.00889},{"code":"0216","name":"Pomabamba","capital":"Pomabamba","lat":-8.82111,"lng":-77.46028},{"code":"0217","name":"Recuay","capital":"Recuay","lat":-9.72167,"lng":-77.45639},{"code":"0218","name":"Santa","capital":"Chimbote","lat":-9.04167,"lng":-78.60778},{"code":"0219","name":"Sihuas","capital":"Sihuas","lat":-8.55444,"lng":-77.63083},{"code":"0220","name":"Yungay","capital":"Yungay","lat":-9.14,"lng":-77.74472},{"code":"0301","name":"Abancay","capital":"Abancay","lat":-13.62889,"lng":-72.88611},{"code":"0302","name":"Andahuaylas","capital":"Andahuaylas","lat":-13.65611,"lng":-73.38972},{"code":"0303","name":"Antabamba","capital":"Antabamba","lat":-14.36528,"lng":-72.87722},{"code":"0304","name":"Aymaraes","capital":"Chalhuanca","lat":-14.29444,"lng":-73.24472},{"code":"0305","name":"Cotabambas","capital":"Tambobamba","lat":-13.94611,"lng":-72.17472},{"code":"0306","name":"Chincheros","capital":"Chincheros","lat":-13.51833,"lng":-73.72278},{"code":"0307","name":"Grau","capital":"Chuquibambilla","lat":-14.105,"lng":-72.70778},{"code":"0401","name":"Arequipa","capital":"Arequipa","lat":-16.39333,"lng":-71.52889},{"code":"0402","name":"Camana","capital":"Camaná","lat":-16.62472,"lng":-72.71139},{"code":"0403","name":"Caraveli","capital":"Caravelí","lat":-15.7725,"lng":-73.36583},{"code":"0404","name":"Castilla","capital":"Aplao","lat":-16.07611,"lng":-72.49222},{"code":"0405","name":"Caylloma","capital":"Chivay","lat":-15.64028,"lng":-71.60361},{"code":"0406","name":"Condesuyos","capital":"Chuquibamba","lat":-15.83944,"lng":-72.65167},{"code":"0407","name":"Islay","capital":"Mollendo","lat":-17.02917,"lng":-72.01639},{"code":"0408","name":"La Union","capital":"Cotahuasi","lat":-15.21278,"lng":-72.88944},{"code":"0501","name":"Huamanga","capital":"Ayacucho","lat":-13.16028,"lng":-74.22528},{"code":"0502","name":"Cangallo","capital":"Cangallo","lat":-13.62917,"lng":-74.14389},{"code":"0503","name":"Huanca Sancos","capital":"Huanca Sancos","lat":-13.91972,"lng":-74.33417},{"code":"0504","name":"Huanta","capital":"Huanta","lat":-12.93944,"lng":-74.24806},{"code":"0505","name":"La Mar","capital":"San Miguel","lat":-13.01278,"lng":-73.98111},{"code":"0506","name":"Lucanas","capital":"Puquio","lat":-14.69417,"lng":-74.12444},{"code":"0507","name":"Parinacochas","capital":"Coracora","lat":-15.01694,"lng":-73.78139},{"code":"0508","name":"Paucar del Sara Sara","capital":"Pausa","lat":-15.27861,"lng":-73.34417},{"code":"0509","name":"Sucre","capital":"Querobamba","lat":-14.01167,"lng":-73.83861},{"code":"0510","name":"Victor Fajardo","capital":"Huancapi","lat":-13.75222,"lng":-74.06667},{"code":"0511","name":"Vilcas Huaman","capital":"Vilcas Huamán","lat":-13.6525,"lng":-73.95389},{"code":"0601","name":"Cajamarca","capital":"Cajamarca","lat":-7.15472,"lng":-78.51083},{"code":"0602","name":"Cajabamba","capital":"Cajabamba","lat":-7.62306,"lng":-78.04611},{"code":"0603","name":"Celendin","capital":"Celendín","lat":-6.86694,"lng":-78.14306},{"code":"0604","name":"Chota","capital":"Chota","lat":-6.55972,"lng":-78.64694},{"code":"0605","name":"Contumaza","capital":"Contumazá","lat":-7.36667,"lng":-78.80528},{"code":"0606","name":"Cutervo","capital":"Cutervo","lat":-6.37722,"lng":-78.81806},{"code":"0607","name":"Hualgayoc","capital":"Bambamarca","lat":-6.67972,"lng":-78.51889},{"code":"0608","name":"Jaen","capital":"Jaén","lat":-5.70889,"lng":-78.80917},{"code":"0609","name":"San Ignacio","capital":"San Ignacio","lat":-5.14611,"lng":-79.00472},{"code":"0610","name":"San Marcos","capital":"San Marcos","lat":-7.33583,"lng":-78.17},{"code":"0611","name":"San Miguel","capital":"San Miguel de Pallaques","lat":-7,"lng":-78.85},{"code":"0612","name":"San Pablo","capital":"San Pablo","lat":-7.11861,"lng":-78.82333},{"code":"0613","name":"Santa Cruz","capital":"Santa Cruz de Succhabamba","lat":-6.62583,"lng":-78.94417},{"code":"0701","name":"Callao","capital":"Callao","lat":-12.06306,"lng":-77.14694},{"code":"0801","name":"Cusco","capital":"Cusco","lat":-13.51917,"lng":-71.97667},{"code":"0802","name":"Acomayo","capital":"Acomayo","lat":-13.91944,"lng":-71.68361},{"code":"0803","name":"Anta","capital":"Anta","lat":-13.45778,"lng":-72.1475},{"code":"0804","name":"Calca","capital":"Calca","lat":-13.32111,"lng":-71.95556},{"code":"0805","name":"Canas","capital":"Yanaoca","lat":-14.21667,"lng":-71.43222},{"code":"0806","name":"Canchis","capital":"Sicuani","lat":-14.23806,"lng":-71.23083},{"code":"0807","name":"Chumbivilcas","capital":"Santo Tomás","lat":-14.45333,"lng":-72.08222},{"code":"0808","name":"Espinar","capital":"Yauri","lat":-14.79306,"lng":-71.41333},{"code":"0809","name":"La Convencion","capital":"Quillabamba","lat":-12.86278,"lng":-72.69333},{"code":"0810","name":"Paruro","capital":"Paruro","lat":-13.76167,"lng":-71.84778},{"code":"0811","name":"Paucartambo","capital":"Paucartambo","lat":-13.31778,"lng":-71.59667},{"code":"0812","name":"Quispicanchi","capital":"Urcos","lat":-13.68778,"lng":-71.62528},{"code":"0813","name":"Urubamba","capital":"Urubamba","lat":-13.30556,"lng":-72.11611},{"code":"0901","name":"Huancavelica","capital":"Huancavelica","lat":-12.78694,"lng":-74.97139},{"code":"0902","name":"Acobamba","capital":"Acobamba","lat":-12.84306,"lng":-74.56917},{"code":"0903","name":"Angaraes","capital":"Lircay","lat":-12.98278,"lng":-74.71833},{"code":"0904","name":"Castrovirreyna","capital":"Castrovirreyna","lat":-13.28333,"lng":-75.31833},{"code":"0905","name":"Churcampa","capital":"Churcampa","lat":-12.73917,"lng":-74.38722},{"code":"0906","name":"Huaytara","capital":"Huaytará","lat":-13.60472,"lng":-75.35306},{"code":"0907","name":"Tayacaja","capital":"Pampas","lat":-12.39917,"lng":-74.86833},{"code":"1001","name":"Huanuco","capital":"Huánuco","lat":-9.93,"lng":-76.23972},{"code":"1002","name":"Ambo","capital":"Ambo","lat":-10.12917,"lng":-76.20444},{"code":"1003","name":"Dos de Mayo","capital":"La Unión","lat":-9.83778,"lng":-76.80361},{"code":"1004","name":"Huacaybamba","capital":"Huacaybamba","lat":-9.03806,"lng":-76.9525},{"code":"1005","name":"Huamalies","capital":"Llata","lat":-9.54972,"lng":-76.81861},{"code":"1006","name":"Leoncio Prado","capital":"Tingo María","lat":-9.29806,"lng":-76.00056},{"code":"1007","name":"Marañon","capital":"Huacrachuco","lat":-8.60472,"lng":-77.14917},{"code":"1008","name":"Pachitea","capital":"Panao","lat":-9.8975,"lng":-75.99417},{"code":"1009","name":"Puerto Inca","capital":"Puerto Inca","lat":-9.37889,"lng":-74.96583},{"code":"1010","name":"Lauricocha","capital":"Jesús","lat":-10.07833,"lng":-76.63139},{"code":"1011","name":"Yarowilca","capital":"Chavinillo","lat":-9.85889,"lng":-76.60889},{"code":"1101","name":"Ica","capital":"Ica","lat":-14.06361,"lng":-75.72917},{"code":"1102","name":"Chincha","capital":"Chincha Alta","lat":-13.41833,"lng":-76.1325},{"code":"1103","name":"Nazca","capital":"Nasca","lat":-14.82694,"lng":-74.93722},{"code":"1104","name":"Palpa","capital":"Palpa","lat":-14.53389,"lng":-75.185},{"code":"1105","name":"Pisco","capital":"Pisco","lat":-13.71,"lng":-76.20167},{"code":"1201","name":"Huancayo","capital":"Huancayo","lat":-12.07083,"lng":-75.20889},{"code":"1202","name":"Concepcion","capital":"Concepción","lat":-11.91889,"lng":-75.3125},{"code":"1203","name":"Chanchamayo","capital":"La Merced","lat":-11.05667,"lng":-75.3275},{"code":"1204","name":"Jauja","capital":"Jauja","lat":-11.77556,"lng":-75.50056},{"code":"1205","name":"Junin","capital":"Junín","lat":-11.16139,"lng":-75.99833},{"code":"1206","name":"Satipo","capital":"Satipo","lat":-11.25389,"lng":-74.63611},{"code":"1207","name":"Tarma","capital":"Tarma","lat":-11.42,"lng":-75.68806},{"code":"1208","name":"Yauli","capital":"La Oroya","lat":-11.52194,"lng":-75.90778},{"code":"1209","name":"Chupaca","capital":"Chupaca","lat":-12.05778,"lng":-75.28944},{"code":"1301","name":"Trujillo","capital":"Trujillo","lat":-8.1,"lng":-79.03056},{"code":"1302","name":"Ascope","capital":"Ascope","lat":-7.71361,"lng":-79.10722},{"code":"1303","name":"Bolivar","capital":"Bolívar","lat":-7.15389,"lng":-77.70222},{"code":"1304","name":"Chepen","capital":"Chepén","lat":-7.2275,"lng":-79.42944},{"code":"1305","name":"Julcan","capital":"Julcán","lat":-8.04278,"lng":-78.48639},{"code":"1306","name":"Otuzco","capital":"Otuzco","lat":-7.90222,"lng":-78.56556},{"code":"1307","name":"Pacasmayo","capital":"San Pedro de Lloc","lat":-7.41833,"lng":-79.51472},{"code":"1308","name":"Pataz","capital":"Tayabamba","lat":-8.275,"lng":-77.29611},{"code":"1309","name":"Sanchez Carrion","capital":"Huamachuco","lat":-7.81111,"lng":-78.04667},{"code":"1310","name":"Santiago de Chuco","capital":"Santiago de Chuco","lat":-8.14528,"lng":-78.17361},{"code":"1311","name":"Gran Chimu","capital":"Cascas","lat":-7.47944,"lng":-78.81972},{"code":"1312","name":"Viru","capital":"Virú","lat":-8.41444,"lng":-78.75278},{"code":"1401","name":"Chiclayo","capital":"Chiclayo","lat":-6.76694,"lng":-79.85056},{"code":"1402","name":"Ferreñafe","capital":"Ferreñafe","lat":-6.63889,"lng":-79.78833},{"code":"1403","name":"Lambayeque","capital":"Lambayeque","lat":-6.70694,"lng":-79.89528},{"code":"1501","name":"Lima","capital":"Lima","lat":-12.04528,"lng":-77.03083},{"code":"1502","name":"Barranca","capital":"Barranca","lat":-10.75333,"lng":-77.765},{"code":"1503","name":"Cajatambo","capital":"Cajatambo","lat":-10.47306,"lng":-76.99306},{"code":"1504","name":"Canta","capital":"Canta","lat":-11.46722,"lng":-76.62444},{"code":"1505","name":"Cañete","capital":"San Vicente de Cañete","lat":-13.07778,"lng":-76.38778},{"code":"1506","name":"Huaral","capital":"Huaral","lat":-11.49528,"lng":-77.20694},{"code":"1507","name":"Huarochiri","capital":"Matucana","lat":-11.845,"lng":-76.38611},{"code":"1508","name":"Huaura","capital":"Huacho","lat":-11.10806,"lng":-77.61028},{"code":"1509","name":"Oyon","capital":"Oyón","lat":-10.66806,"lng":-76.77333},{"code":"1510","name":"Yauyos","capital":"Yauyos","lat":-12.45972,"lng":-75.91833},{"code":"1601","name":"Maynas","capital":"Iquitos","lat":-3.74806,"lng":-73.24417},{"code":"1602","name":"Alto Amazonas","capital":"Yurimaguas","lat":-5.88417,"lng":-76.12806},{"code":"1603","name":"Loreto","capital":"Nauta","lat":-4.50139,"lng":-73.56944},{"code":"1604","name":"Mariscal Ramon Castilla","capital":"Caballococha","lat":-3.90611,"lng":-70.51694},{"code":"1605","name":"Requena","capital":"Requena","lat":-5.06389,"lng":-73.85667},{"code":"1606","name":"Ucayali","capital":"Contamana","lat":-7.35056,"lng":-75.00972},{"code":"1607","name":"Datem del Marañon","capital":"San Lorenzo","lat":-4.83111,"lng":-76.555},{"code":"1608","name":"Putumayo","capital":"San Antonio del Estrecho","lat":-2.44694,"lng":-72.66806},{"code":"1701","name":"Tambopata","capital":"Puerto Maldonado","lat":-12.59361,"lng":-69.17667},{"code":"1702","name":"Manu","capital":"Salvación","lat":-12.83722,"lng":-71.36528},{"code":"1703","name":"Tahuamanu","capital":"Iñapari","lat":-10.945,"lng":-69.57667},{"code":"1801","name":"Mariscal Nieto","capital":"Moquegua","lat":-17.19417,"lng":-70.93333},{"code":"1802","name":"General Sanchez Cerro","capital":"Omate","lat":-16.67361,"lng":-70.97056},{"code":"1803","name":"Ilo","capital":"Ilo","lat":-17.625,"lng":-71.34333},{"code":"1901","name":"Pasco","capital":"Cerro de Pasco","lat":-10.6825,"lng":-76.25694},{"code":"1902","name":"Daniel Alcides Carrion","capital":"Yanahuanca","lat":-10.49139,"lng":-76.51639},{"code":"1903","name":"Oxapampa","capital":"Oxapampa","lat":-10.575,"lng":-75.40472},{"code":"2001","name":"Piura","capital":"Piura","lat":-5.1525,"lng":-80.65778},{"code":"2002","name":"Ayabaca","capital":"Ayabaca","lat":-4.64056,"lng":-79.71528},{"code":"2003","name":"Huancabamba","capital":"Huancabamba","lat":-5.23861,"lng":-79.45028},{"code":"2004","name":"Morropon","capital":"Chulucanas","lat":-5.09722,"lng":-80.16028},{"code":"2005","name":"Paita","capital":"Paita","lat":-5.09306,"lng":-81.09944},{"code":"2006","name":"Sullana","capital":"Sullana","lat":-4.89056,"lng":-80.68778},{"code":"2007","name":"Talara","capital":"Talara","lat":-4.57944,"lng":-81.26944},{"code":"2008","name":"Sechura","capital":"Sechura","lat":-5.55722,"lng":-80.82222},{"code":"2101","name":"Puno","capital":"Puno","lat":-15.84028,"lng":-70.02806},{"code":"2102","name":"Azangaro","capital":"Azángaro","lat":-14.90806,"lng":-70.19556},{"code":"2103","name":"Carabaya","capital":"Macusani","lat":-14.06861,"lng":-70.43111},{"code":"2104","name":"Chucuito","capital":"Juli","lat":-16.21278,"lng":-69.45944},{"code":"2105","name":"El Collao","capital":"Ilave","lat":-16.08694,"lng":-69.63806},{"code":"2106","name":"Huancane","capital":"Huancané","lat":-15.20083,"lng":-69.76778},{"code":"2107","name":"Lampa","capital":"Lampa","lat":-15.36472,"lng":-70.36778},{"code":"2108","name":"Melgar","capital":"Ayaviri","lat":-14.88167,"lng":-70.58944},{"code":"2109","name":"Moho","capital":"Moho","lat":-15.36028,"lng":-69.49972},{"code":"2110","name":"San Antonio de Putina","capital":"Putina","lat":-14.91417,"lng":-69.86889},{"code":"2111","name":"San Roman","capital":"Juliaca","lat":-15.48389,"lng":-70.13333},{"code":"2112","name":"Sandia","capital":"Sandia","lat":-14.32222,"lng":-69.46639},{"code":"2113","name":"Yunguyo","capital":"Yunguyo","lat":-16.22667,"lng":-69.09556},{"code":"2201","name":"Moyobamba","capital":"Moyobamba","lat":-6.03472,"lng":-76.97417},{"code":"2202","name":"Bellavista","capital":"Bellavista","lat":-7.05222,"lng":-76.58972},{"code":"2203","name":"El Dorado","capital":"San José de Sisa","lat":-6.61389,"lng":-76.69528},{"code":"2204","name":"Huallaga","capital":"Saposoa","lat":-6.93667,"lng":-76.77222},{"code":"2205","name":"Lamas","capital":"Lamas","lat":-6.42389,"lng":-76.52333},{"code":"2206","name":"Mariscal Caceres","capital":"Juanjuí","lat":-7.17667,"lng":-76.72389},{"code":"2207","name":"Picota","capital":"Picota","lat":-6.92,"lng":-76.33028},{"code":"2208","name":"Rioja","capital":"Rioja","lat":-6.0625,"lng":-77.16833},{"code":"2209","name":"San Martin","capital":"Tarapoto","lat":-6.48944,"lng":-76.36028},{"code":"2210","name":"Tocache","capital":"Tocache","lat":-8.18833,"lng":-76.50944},{"code":"2301","name":"Tacna","capital":"Tacna","lat":-18.00194,"lng":-70.25194},{"code":"2302","name":"Candarave","capital":"Candarave","lat":-17.26806,"lng":-70.25028},{"code":"2303","name":"Jorge Basadre","capital":"Locumba","lat":-17.61389,"lng":-70.76278},{"code":"2304","name":"Tarata","capital":"Tarata","lat":-17.475,"lng":-70.03194},{"code":"2401","name":"Tumbes","capital":"Tumbes","lat":-3.57111,"lng":-80.45917},{"code":"2402","name":"Contralmirante Villar","capital":"Zorritos","lat":-3.6775,"lng":-80.66806},{"code":"2403","name":"Zarumilla","capital":"Zarumilla","lat":-3.50111,"lng":-80.27556},{"code":"2501","name":"Coronel Portillo","capital":"Pucallpa","lat":-8.36806,"lng":-74.54333},{"code":"2502","name":"Atalaya","capital":"Atalaya","lat":-10.72972,"lng":-73.75528},{"code":"2503","name":"Padre Abad","capital":"Aguaytía","lat":-9.03361,"lng":-75.5075},{"code":"2504","name":"Purus","capital":"Esperanza","lat":-9.77222,"lng":-70.70972}]